[
  {
    "domain": "126.com",
    "institution": "the First hospital of Harbin city",
    "country": "China",
    "country_code": "CN",
    "region": "23",
    "city": "Harbin",
    "lat": 45.8038,
    "lon": 126.534,
    "org": "Chinanet GZ",
    "category": "Healthcare",
    "display_name": "the First hospital of Harbin city",
    "count": 1
  },
  {
    "domain": "163.com",
    "institution": "Sichuan Provincial People's Hospital",
    "country": "China",
    "country_code": "CN",
    "region": "SC",
    "city": "Chengdu",
    "lat": 30.5728,
    "lon": 104.0668,
    "org": "Guangzhou NetEase Computer System Co., Ltd",
    "category": "Healthcare",
    "display_name": "Sichuan Provincial People's Hospital",
    "count": 2
  },
  {
    "domain": "2014.ljmu.ac.uk",
    "institution": "LJMU",
    "country": "United Kingdom",
    "country_code": "GB",
    "region": "ENG",
    "city": "Liverpool",
    "lat": 53.4096,
    "lon": -2.9792,
    "org": "Liverpool John Moores University",
    "category": "Academic",
    "display_name": "LJMU",
    "count": 2
  },
  {
    "domain": "21cn.com",
    "institution": "",
    "country": "China",
    "country_code": "CN",
    "region": "JS",
    "city": "Nanjing",
    "lat": 32.0607,
    "lon": 118.763,
    "org": "Chinanet JS",
    "category": "Commercial",
    "display_name": "21CN",
    "count": 1
  },
  {
    "domain": "3e.org",
    "institution": "",
    "country": "United States",
    "country_code": "US",
    "region": "VA",
    "city": "Ashburn",
    "lat": 39.0228,
    "lon": -77.4549,
    "org": "DreamHost",
    "category": "Commercial",
    "display_name": "3E",
    "count": 1
  },
  {
    "domain": "600series.net",
    "institution": "Mandalorian Institute of Culture",
    "country": "United States",
    "country_code": "US",
    "region": "CA",
    "city": "Los Angeles",
    "lat": 34.0356,
    "lon": -118.442,
    "org": "Namecheap, Inc.",
    "category": "Academic",
    "display_name": "Mandalorian Institute of Culture",
    "count": 1
  },
  {
    "domain": "a.riken.jp",
    "institution": "RIKEN Center for Biosystems Dynamics Research",
    "country": "Japan",
    "country_code": "JP",
    "region": "11",
    "city": "Asaka",
    "lat": 35.7957,
    "lon": 139.5981,
    "org": "",
    "category": "Research",
    "display_name": "RIKEN Center for Biosystems Dynamics Research",
    "count": 1
  },
  {
    "domain": "arizona.edu",
    "institution": "University of Arizona",
    "country": "United States",
    "country_code": "US",
    "region": "AZ",
    "city": "Tucson",
    "lat": 32.2217,
    "lon": -110.9265,
    "org": "Fastly, Inc.",
    "category": "Academic",
    "display_name": "University of Arizona",
    "count": 16
  },
  {
    "domain": "abdn.ac.uk",
    "institution": "",
    "country": "United Kingdom",
    "country_code": "GB",
    "region": "SCT",
    "city": "Aberdeen",
    "lat": 57.1453,
    "lon": -2.0945,
    "org": "University of Aberdeen",
    "category": "Academic",
    "display_name": "ABDN",
    "count": 1
  },
  {
    "domain": "ae.mpg.de",
    "institution": "Max Planck Institute",
    "country": "Germany",
    "country_code": "DE",
    "region": "NI",
    "city": "Göttingen",
    "lat": 51.5325,
    "lon": 9.9421,
    "org": "Gesellschaft fuer wissenschaftliche Datenverarbeitung mbH",
    "category": "Academic",
    "display_name": "Max Planck Institute",
    "count": 2
  },
  {
    "domain": "afourtech.com",
    "institution": "AFour Tech",
    "country": "United States",
    "country_code": "US",
    "region": "NJ",
    "city": "Newark",
    "lat": 40.7357,
    "lon": -74.1724,
    "org": "Cloudflare, Inc.",
    "category": "Commercial",
    "display_name": "AFour Tech",
    "count": 10
  },
  {
    "domain": "ainostics.com",
    "institution": "AINOSTICS",
    "country": "United States",
    "country_code": "US",
    "region": "VA",
    "city": "Ashburn",
    "lat": 39.018,
    "lon": -77.539,
    "org": "Wix Com Inc",
    "category": "Commercial",
    "display_name": "AINOSTICS",
    "count": 5
  },
  {
    "domain": "aliyun.com",
    "institution": "University of Electronic Science and Technology China",
    "country": "China",
    "country_code": "CN",
    "region": "ZJ",
    "city": "Hangzhou",
    "lat": 30.2818,
    "lon": 120.122,
    "org": "Zhejiang Taobao Network Co., Ltd",
    "category": "Academic",
    "display_name": "University of Electronic Science and Technology China",
    "count": 1
  },
  {
    "domain": "alteholz.de",
    "institution": "",
    "country": "Germany",
    "country_code": "DE",
    "region": "BE",
    "city": "Berlin",
    "lat": 52.52,
    "lon": 13.405,
    "org": "IONOS SE",
    "category": "Commercial",
    "display_name": "ALTEHOLZ",
    "count": 1
  },
  {
    "domain": "alum.mit.edu",
    "institution": "",
    "country": "United States",
    "country_code": "US",
    "region": "PA",
    "city": "Philadelphia",
    "lat": 39.952,
    "lon": -75.1649,
    "org": "Akamai Technologies, Inc.",
    "category": "Academic",
    "display_name": "ALUM",
    "count": 1
  },
  {
    "domain": "amazon.com",
    "institution": "AWS",
    "country": "United States",
    "country_code": "US",
    "region": "VA",
    "city": "Ashburn",
    "lat": 39.0438,
    "lon": -77.4874,
    "org": "Amazon Technologies Inc. (us-east-1)",
    "category": "Commercial",
    "display_name": "AWS",
    "count": 11
  },
  {
    "domain": "amsterdamumc.nl",
    "institution": "Amsterdam UMC",
    "country": "The Netherlands",
    "country_code": "NL",
    "region": "NH",
    "city": "Uithoorn",
    "lat": 52.2455,
    "lon": 4.8256,
    "org": "Amcnet",
    "category": "Commercial",
    "display_name": "Amsterdam UMC",
    "count": 2
  },
  {
    "domain": "andromedainnovation.org",
    "institution": "Andromeda Institute for Innovation and Implementation Science",
    "country": "United States",
    "country_code": "US",
    "region": "GA",
    "city": "Austell",
    "lat": 33.7815,
    "lon": -84.5976,
    "org": "Google LLC",
    "category": "Academic",
    "display_name": "Andromeda Institute for Innovation and Implementation Science",
    "count": 2
  },
  {
    "domain": "anzup.org.au",
    "institution": "ANZUP Cancer Trials Group Limited",
    "country": "United States",
    "country_code": "US",
    "region": "TX",
    "city": "Austin",
    "lat": 30.2681,
    "lon": -97.7462,
    "org": "WPEngine, Inc.",
    "category": "Commercial",
    "display_name": "ANZUP Cancer Trials Group Limited",
    "count": 5
  },
  {
    "domain": "desacc.com",
    "institution": "DesAcc",
    "country": "United States",
    "country_code": "US",
    "region": "WA",
    "city": "Seattle",
    "lat": 47.4815,
    "lon": -122.246,
    "org": "AWS Global Accelerator (GLOBAL)",
    "category": "Commercial",
    "display_name": "DesAcc",
    "count": 5
  },
  {
    "domain": "aphp.fr",
    "institution": "AP-HP GHUEP HOPITAL TENON & SORBONNE UNIVERSITY PARIS FRANCE",
    "country": "Germany",
    "country_code": "DE",
    "region": "HE",
    "city": "Frankfurt",
    "lat": 50.1109,
    "lon": 8.6821,
    "org": "Radware Inc",
    "category": "Academic",
    "display_name": "AP-HP GHUEP HOPITAL TENON & SORBONNE UNIVERSITY PARIS FRANCE",
    "count": 2
  },
  {
    "domain": "neura.edu.au",
    "institution": "Neuroscience Research Australia",
    "country": "Australia",
    "country_code": "AU",
    "region": "NSW",
    "city": "Sydney",
    "lat": -33.8591,
    "lon": 151.2002,
    "org": "AWS EC2 (ap-southeast-2)",
    "category": "Academic",
    "display_name": "Neuroscience Research Australia",
    "count": 3
  },
  {
    "domain": "ausyscom.net",
    "institution": "none",
    "country": "Japan",
    "country_code": "JP",
    "region": "13",
    "city": "Chiyoda City",
    "lat": 35.6916,
    "lon": 139.768,
    "org": "interQ",
    "category": "Commercial",
    "display_name": "none",
    "count": 1
  },
  {
    "domain": "boehringer-ingelheim.com",
    "institution": "BI",
    "country": "United Kingdom",
    "country_code": "GB",
    "region": "ENG",
    "city": "London",
    "lat": 51.5072,
    "lon": -0.127586,
    "org": "Incapsula Inc",
    "category": "Commercial",
    "display_name": "BI",
    "count": 2
  },
  {
    "domain": "bangor.ac.uk",
    "institution": "Bangor University",
    "country": "United Kingdom",
    "country_code": "GB",
    "region": "WLS",
    "city": "Bangor",
    "lat": 53.228,
    "lon": -4.129,
    "org": "AWS EC2 (eu-west-1)",
    "category": "Academic",
    "display_name": "Bangor University",
    "count": 3
  },
  {
    "domain": "barcelonabeta.org",
    "institution": "BarcelonaBeta Brain Research Center",
    "country": "France",
    "country_code": "FR",
    "region": "HDF",
    "city": "Gravelines",
    "lat": 50.9871,
    "lon": 2.12554,
    "org": "OVH",
    "category": "Research",
    "display_name": "BarcelonaBeta Brain Research Center",
    "count": 1
  },
  {
    "domain": "bartron.ws",
    "institution": "",
    "country": "United States",
    "country_code": "US",
    "region": "AZ",
    "city": "Phoenix",
    "lat": 33.4656,
    "lon": -111.9956,
    "org": "Unified Layer",
    "category": "Commercial",
    "display_name": "BARTRON",
    "count": 2
  },
  {
    "domain": "bcchr.ca",
    "institution": "BC Children's Hospital",
    "country": "Canada",
    "country_code": "CA",
    "region": "BC",
    "city": "Vancouver",
    "lat": 49.2476,
    "lon": -123.1234,
    "org": "University of British Columbia",
    "category": "Healthcare",
    "display_name": "BC Children's Hospital",
    "count": 1
  },
  {
    "domain": "bli.uzh.ch",
    "institution": "",
    "country": "Switzerland",
    "country_code": "CH",
    "region": "ZH",
    "city": "Zurich",
    "lat": 47.3823,
    "lon": 8.5397,
    "org": "Universitaet Zuerich",
    "category": "Commercial",
    "display_name": "BLI",
    "count": 1
  },
  {
    "domain": "bmsce.ac.in",
    "institution": "BMSCE / OSU",
    "country": "India",
    "country_code": "IN",
    "region": "KA",
    "city": "Bengaluru",
    "lat": 12.9753,
    "lon": 77.591,
    "org": "Vultr Holdings, LLC",
    "category": "Academic",
    "display_name": "BMSCE / OSU",
    "count": 1
  },
  {
    "domain": "bnac.net",
    "institution": "BNAC SUNY Buffalo",
    "country": "United States",
    "country_code": "US",
    "region": "NJ",
    "city": "Cedar Knolls",
    "lat": 40.8229,
    "lon": -74.4592,
    "org": "Linode",
    "category": "Commercial",
    "display_name": "BNAC SUNY Buffalo",
    "count": 1
  },
  {
    "domain": "pennmedicine.upenn.edu",
    "institution": "University of Pennsylvania",
    "country": "United States",
    "country_code": "US",
    "region": "NY",
    "city": "New York",
    "lat": 40.7128,
    "lon": -74.006,
    "org": "Incapsula Inc",
    "category": "Academic",
    "display_name": "University of Pennsylvania",
    "count": 6
  },
  {
    "domain": "brainimageanalysis.com",
    "institution": "",
    "country": "United States",
    "country_code": "US",
    "region": "FL",
    "city": "Jacksonville",
    "lat": 30.2439,
    "lon": -81.5322,
    "org": "Newfold Digital, Inc.",
    "category": "Commercial",
    "display_name": "BRAINIMAGEANALYSIS",
    "count": 1
  },
  {
    "domain": "brainomix.com",
    "institution": "Brainomix Limited",
    "country": "United Kingdom",
    "country_code": "GB",
    "region": "ENG",
    "city": "City of London",
    "lat": 51.5113,
    "lon": -0.079212,
    "org": "Microsoft Azure App Service (uksouth)",
    "category": "Commercial",
    "display_name": "Brainomix Limited",
    "count": 2
  },
  {
    "domain": "brighteyeweb.com",
    "institution": "",
    "country": "United States",
    "country_code": "US",
    "region": "MI",
    "city": "Lansing",
    "lat": 42.6898,
    "lon": -84.6427,
    "org": "Liquid Web, L.L.C",
    "category": "Commercial",
    "display_name": "BRIGHTEYEWEB",
    "count": 1
  },
  {
    "domain": "brown.edu",
    "institution": "Brown University",
    "country": "United States",
    "country_code": "US",
    "region": "RI",
    "city": "Providence",
    "lat": 41.8268,
    "lon": -71.4142,
    "org": "Brown University",
    "category": "Academic",
    "display_name": "Brown University",
    "count": 1
  },
  {
    "domain": "btinternet.com",
    "institution": "",
    "country": "United Kingdom",
    "country_code": "GB",
    "region": "ENG",
    "city": "Coventry",
    "lat": 52.4627,
    "lon": -1.5595,
    "org": "",
    "category": "Commercial",
    "display_name": "BTINTERNET",
    "count": 1
  },
  {
    "domain": "bu.edu",
    "institution": "BOSTON UNIVERSITY",
    "country": "United States",
    "country_code": "US",
    "region": "MA",
    "city": "Marblehead",
    "lat": 42.4947,
    "lon": -70.8499,
    "org": "Boston University",
    "category": "Academic",
    "display_name": "BOSTON UNIVERSITY",
    "count": 1
  },
  {
    "domain": "buffalo.edu",
    "institution": "",
    "country": "United States",
    "country_code": "US",
    "region": "NY",
    "city": "Spencerport",
    "lat": 43.1865,
    "lon": -77.8028,
    "org": "State University of New York at Buffalo",
    "category": "Academic",
    "display_name": "BUFFALO",
    "count": 1
  },
  {
    "domain": "caltech.edu",
    "institution": "",
    "country": "United States",
    "country_code": "US",
    "region": "OR",
    "city": "Portland",
    "lat": 45.5235,
    "lon": -122.676,
    "org": "AWS EC2 (us-west-2)",
    "category": "Academic",
    "display_name": "CALTECH",
    "count": 4
  },
  {
    "domain": "cam.ac.uk",
    "institution": "Institute for Cancer Research UK",
    "country": "United Kingdom",
    "country_code": "GB",
    "region": "ENG",
    "city": "Cambridge",
    "lat": 52.2053,
    "lon": 0.1218,
    "org": "Pantheon",
    "category": "Academic",
    "display_name": "Institute for Cancer Research UK",
    "count": 8
  },
  {
    "domain": "camh.ca",
    "institution": "",
    "country": "Canada",
    "country_code": "CA",
    "region": "ON",
    "city": "Toronto",
    "lat": 43.6654,
    "lon": -79.4208,
    "org": "Centre Addiction and Mental Health",
    "category": "Commercial",
    "display_name": "CAMH",
    "count": 1
  },
  {
    "domain": "cardiff.ac.uk",
    "institution": "CUBRIC (Cardiff University Brain Research Imaging Centre)",
    "country": "United Kingdom",
    "country_code": "GB",
    "region": "WLS",
    "city": "Cardiff",
    "lat": 51.4816,
    "lon": -3.1791,
    "org": "Squiz hosting",
    "category": "Academic",
    "display_name": "CUBRIC (Cardiff University Brain Research Imaging Centre)",
    "count": 3
  },
  {
    "domain": "carelliance.com",
    "institution": "Carelliance",
    "country": "The Netherlands",
    "country_code": "NL",
    "region": "ZH",
    "city": "Rotterdam",
    "lat": 51.9179,
    "lon": 4.51508,
    "org": "XL  BV",
    "category": "Commercial",
    "display_name": "Carelliance",
    "count": 1
  },
  {
    "domain": "cermep.fr",
    "institution": "",
    "country": "France",
    "country_code": "FR",
    "region": "ARA",
    "city": "Lyon",
    "lat": 45.764,
    "lon": 4.83566,
    "org": "U 1 Lyon",
    "category": "Commercial",
    "display_name": "CERMEP",
    "count": 1
  },
  {
    "domain": "charite.de",
    "institution": "Charite Universitätsmedizin Berlin",
    "country": "Germany",
    "country_code": "DE",
    "region": "BE",
    "city": "Berlin",
    "lat": 52.4422,
    "lon": 13.3217,
    "org": "Charite - Universitaetsmedizin Berlin",
    "category": "Academic",
    "display_name": "Charite Universitätsmedizin Berlin",
    "count": 1
  },
  {
    "domain": "chu-grenoble.fr",
    "institution": "",
    "country": "France",
    "country_code": "FR",
    "region": "HDF",
    "city": "Roubaix",
    "lat": 50.6924,
    "lon": 3.20113,
    "org": "OVH SAS",
    "category": "Commercial",
    "display_name": "CHU-GRENOBLE",
    "count": 1
  },
  {
    "domain": "chuv.ch",
    "institution": "CHUV",
    "country": "Switzerland",
    "country_code": "CH",
    "region": "GE",
    "city": "Geneva",
    "lat": 46.1912,
    "lon": 6.13048,
    "org": "Infomaniak Network SA",
    "category": "Commercial",
    "display_name": "CHUV",
    "count": 1
  },
  {
    "domain": "circlecvi.com",
    "institution": "Circle CVI",
    "country": "United States",
    "country_code": "US",
    "region": "CA",
    "city": "Walnut",
    "lat": 34.0233,
    "lon": -117.8512,
    "org": "Vercel, Inc",
    "category": "Commercial",
    "display_name": "Circle CVI",
    "count": 1
  },
  {
    "domain": "jhu.edu",
    "institution": "Johns Hopkins School of Medicine",
    "country": "United States",
    "country_code": "US",
    "region": "MD",
    "city": "Baltimore",
    "lat": 39.3248,
    "lon": -76.6062,
    "org": "Johns Hopkins University",
    "category": "Academic",
    "display_name": "Johns Hopkins School of Medicine",
    "count": 3
  },
  {
    "domain": "clemson.edu",
    "institution": "",
    "country": "United States",
    "country_code": "US",
    "region": "SC",
    "city": "Clemson",
    "lat": 34.6805,
    "lon": -82.8231,
    "org": "Clemson University",
    "category": "Academic",
    "display_name": "CLEMSON",
    "count": 1
  },
  {
    "domain": "clinic.cat",
    "institution": "Hospital Clinic Barcelona",
    "country": "Spain",
    "country_code": "ES",
    "region": "CT",
    "city": "Barcelona",
    "lat": 41.3851,
    "lon": 2.1734,
    "org": "MRM",
    "category": "Healthcare",
    "display_name": "Hospital Clinic Barcelona",
    "count": 1
  },
  {
    "domain": "cs.odu.edu",
    "institution": "",
    "country": "United States",
    "country_code": "US",
    "region": "VA",
    "city": "Norfolk",
    "lat": 36.8882,
    "lon": -76.3002,
    "org": "Old Dominion University",
    "category": "Academic",
    "display_name": "CS",
    "count": 1
  },
  {
    "domain": "cs.wisc.edu",
    "institution": "University of Wisconsin-Madison",
    "country": "United States",
    "country_code": "US",
    "region": "WI",
    "city": "Madison",
    "lat": 43.0782,
    "lon": -89.4075,
    "org": "University of Wisconsin Madison",
    "category": "Academic",
    "display_name": "University of Wisconsin-Madison",
    "count": 1
  },
  {
    "domain": "cse.uiu.ac.bd",
    "institution": "United International University",
    "country": "Bangladesh",
    "country_code": "BD",
    "region": "C",
    "city": "Dhaka",
    "lat": 23.7996,
    "lon": 90.4435,
    "org": "United International University",
    "category": "Academic",
    "display_name": "United International University",
    "count": 1
  },
  {
    "domain": "csiro.au",
    "institution": "CSIRO",
    "country": "Australia",
    "country_code": "AU",
    "region": "ACT",
    "city": "Canberra",
    "lat": -35.2748,
    "lon": 149.114,
    "org": "Commonwealth Scientific and Industrial Research Organisation",
    "category": "Commercial",
    "display_name": "CSIRO",
    "count": 1
  },
  {
    "domain": "dac.unicamp.br",
    "institution": "University of Campinas",
    "country": "Brazil",
    "country_code": "BR",
    "region": "SP",
    "city": "Campinas",
    "lat": -22.8951,
    "lon": -47.0439,
    "org": "Universidade Estadual De Campinas",
    "category": "Academic",
    "display_name": "University of Campinas",
    "count": 1
  },
  {
    "domain": "dal.ca",
    "institution": "Dalhousie University, Psychiatry Dept",
    "country": "Canada",
    "country_code": "CA",
    "region": "NS",
    "city": "Halifax",
    "lat": 44.6096,
    "lon": -63.5963,
    "org": "Dalhousie University",
    "category": "Academic",
    "display_name": "Dalhousie University, Psychiatry Dept",
    "count": 1
  },
  {
    "domain": "darmiyan.com",
    "institution": "Darmiyan",
    "country": "United States",
    "country_code": "US",
    "region": "CA",
    "city": "San Francisco",
    "lat": 37.7794,
    "lon": -122.4176,
    "org": "",
    "category": "Commercial",
    "display_name": "Darmiyan",
    "count": 1
  },
  {
    "domain": "dartmouth.edu",
    "institution": "",
    "country": "United States",
    "country_code": "US",
    "region": "NH",
    "city": "Hanover",
    "lat": 43.7019,
    "lon": -72.2827,
    "org": "Dartmouth College",
    "category": "Academic",
    "display_name": "DARTMOUTH",
    "count": 1
  },
  {
    "domain": "datahive.co.za",
    "institution": "DataHive",
    "country": "South Africa",
    "country_code": "ZA",
    "region": "WC",
    "city": "Cape Town",
    "lat": -33.8631,
    "lon": 18.6409,
    "org": "",
    "category": "Commercial",
    "display_name": "DataHive",
    "count": 1
  },
  {
    "domain": "icr.ac.uk",
    "institution": "Institute for Cancer Research UK",
    "country": "United Kingdom",
    "country_code": "GB",
    "region": "ENG",
    "city": "London",
    "lat": 51.5074,
    "lon": -0.1278,
    "org": "CloudFlare, Inc.",
    "category": "Academic",
    "display_name": "Institute for Cancer Research UK",
    "count": 6
  },
  {
    "domain": "deck5consulting.com",
    "institution": "Radiologics",
    "country": "United States",
    "country_code": "US",
    "region": "GA",
    "city": "Atlanta",
    "lat": 33.7488,
    "lon": -84.3877,
    "org": "Web-hosting.com",
    "category": "Commercial",
    "display_name": "Radiologics",
    "count": 1
  },
  {
    "domain": "dei.unipd.it",
    "institution": "",
    "country": "Italy",
    "country_code": "IT",
    "region": "34",
    "city": "Padua",
    "lat": 45.413,
    "lon": 11.8806,
    "org": "Universita' degli Studi di Padova",
    "category": "Commercial",
    "display_name": "DEI",
    "count": 1
  },
  {
    "domain": "dental.ufl.edu",
    "institution": "University of Florida",
    "country": "United States",
    "country_code": "US",
    "region": "FL",
    "city": "Gainesville",
    "lat": 29.6138,
    "lon": -82.386,
    "org": "University of Florida/Medical Center",
    "category": "Academic",
    "display_name": "University of Florida",
    "count": 1
  },
  {
    "domain": "dfci.harvard.edu",
    "institution": "Dana-Farber Cancer Institute",
    "country": "United States",
    "country_code": "US",
    "region": "MA",
    "city": "Winchester",
    "lat": 42.4539,
    "lon": -71.1414,
    "org": "Mass General Brigham Incorporated",
    "category": "Academic",
    "display_name": "Dana-Farber Cancer Institute",
    "count": 2
  },
  {
    "domain": "dfmf.uned.es",
    "institution": "UNED",
    "country": "Spain",
    "country_code": "ES",
    "region": "MD",
    "city": "Madrid",
    "lat": 40.4327,
    "lon": -3.7011,
    "org": "RedUNED",
    "category": "Commercial",
    "display_name": "UNED",
    "count": 2
  },
  {
    "domain": "dkfz-heidelberg.de",
    "institution": "",
    "country": "Germany",
    "country_code": "DE",
    "region": "BW",
    "city": "Heidelberg",
    "lat": 49.4144,
    "lon": 8.67296,
    "org": "",
    "category": "Commercial",
    "display_name": "DKFZ-HEIDELBERG",
    "count": 1
  },
  {
    "domain": "drcmr.dk",
    "institution": "",
    "country": "Denmark",
    "country_code": "DK",
    "region": "84",
    "city": "Copenhagen",
    "lat": 55.6761,
    "lon": 12.5683,
    "org": "Drcmr",
    "category": "Commercial",
    "display_name": "DRCMR",
    "count": 1
  },
  {
    "domain": "drpaur.com",
    "institution": "Neurological Praxis",
    "country": "Austria",
    "country_code": "AT",
    "region": "4",
    "city": "Linz",
    "lat": 48.3182,
    "lon": 14.306,
    "org": "",
    "category": "Commercial",
    "display_name": "Neurological Praxis",
    "count": 1
  },
  {
    "domain": "dzne.de",
    "institution": "Deutsches Zentrum fÃ¼r Neurodegenerative Erkrankungen e.V.",
    "country": "Germany",
    "country_code": "DE",
    "region": "SN",
    "city": "Falkenstein",
    "lat": 50.4777,
    "lon": 12.3649,
    "org": "Hetzner Online GmbH",
    "category": "Commercial",
    "display_name": "Deutsches Zentrum fÃ¼r Neurodegenerative Erkrankungen e.V.",
    "count": 4
  },
  {
    "domain": "email.ulster.ac.uk",
    "institution": "",
    "country": "United Kingdom",
    "country_code": "GB",
    "region": "NIR",
    "city": "Newtownabbey",
    "lat": 54.6873,
    "lon": -5.88274,
    "org": "University of Ulster",
    "category": "Academic",
    "display_name": "EMAIL",
    "count": 1
  },
  {
    "domain": "email.wustl.edu",
    "institution": "Washington University School of Medicine",
    "country": "United States",
    "country_code": "US",
    "region": "MO",
    "city": "St Louis",
    "lat": 38.5492,
    "lon": -90.3837,
    "org": "Washington University",
    "category": "Academic",
    "display_name": "Washington University School of Medicine",
    "count": 1
  },
  {
    "domain": "eu.medical.canon",
    "institution": "Canon Medical Research Europe",
    "country": "Japan",
    "country_code": "JP",
    "region": "13",
    "city": "Tokyo",
    "lat": 35.6895,
    "lon": 139.692,
    "org": "AWS EC2 (ap-northeast-1)",
    "category": "Healthcare",
    "display_name": "Canon Medical Research Europe",
    "count": 1
  },
  {
    "domain": "fau.de",
    "institution": "Inst. Pharmacology, FAU Erlangen",
    "country": "Germany",
    "country_code": "DE",
    "region": "BY",
    "city": "Erlangen",
    "lat": 49.5939,
    "lon": 11,
    "org": "Friedrich-Alexander-Universitaet Erlangen-Nuernberg",
    "category": "Commercial",
    "display_name": "Inst. Pharmacology, FAU Erlangen",
    "count": 1
  },
  {
    "domain": "fcbg.ch",
    "institution": "Foundation Campus Biotech Geneva",
    "country": "Switzerland",
    "country_code": "CH",
    "region": "GE",
    "city": "Geneva",
    "lat": 46.2044,
    "lon": 6.14316,
    "org": "Infomaniak Network",
    "category": "Commercial",
    "display_name": "Foundation Campus Biotech Geneva",
    "count": 1
  },
  {
    "domain": "fi-llc.com",
    "institution": "",
    "country": "United States",
    "country_code": "US",
    "region": "NY",
    "city": "New York",
    "lat": 40.7209,
    "lon": -74.001,
    "org": "Squarespace, Inc.",
    "category": "Commercial",
    "display_name": "FI-LLC",
    "count": 1
  },
  {
    "domain": "fiu.edu",
    "institution": "Florida International Univesity",
    "country": "United States",
    "country_code": "US",
    "region": "VA",
    "city": "Boydton",
    "lat": 36.677696,
    "lon": -78.37471,
    "org": "Microsoft Azure App Service (eastus)",
    "category": "Academic",
    "display_name": "Florida International Univesity",
    "count": 1
  },
  {
    "domain": "foxmail.com",
    "institution": "Quia sint ea expedita optio voluptatum vero",
    "country": "China",
    "country_code": "CN",
    "region": "GD",
    "city": "Guangzhou",
    "lat": 23.1317,
    "lon": 113.266,
    "org": "Chinanet GD",
    "category": "Commercial",
    "display_name": "Quia sint ea expedita optio voluptatum vero",
    "count": 1
  },
  {
    "domain": "fpmaragall.org",
    "institution": "Fundació Barcelona Beta Brain Research Center",
    "country": "Germany",
    "country_code": "DE",
    "region": "BY",
    "city": "Nuremberg",
    "lat": 49.4527,
    "lon": 11.0783,
    "org": "Hetzner",
    "category": "Research",
    "display_name": "Fundació Barcelona Beta Brain Research Center",
    "count": 1
  },
  {
    "domain": "fu-berlin.de",
    "institution": "Max Planck Institute for Human Development",
    "country": "Germany",
    "country_code": "DE",
    "region": "BE",
    "city": "Berlin",
    "lat": 52.4982,
    "lon": 13.4755,
    "org": "Freie Universitaet Berlin",
    "category": "Academic",
    "display_name": "Max Planck Institute for Human Development",
    "count": 1
  },
  {
    "domain": "fz-juelich.de",
    "institution": "Forschungszentrum Juelich",
    "country": "Germany",
    "country_code": "DE",
    "region": "NW",
    "city": "Jülich",
    "lat": 50.9214,
    "lon": 6.3637,
    "org": "Forschungszentrum Juelich GmbH",
    "category": "Commercial",
    "display_name": "Forschungszentrum Juelich",
    "count": 1
  },
  {
    "domain": "g.ucla.edu",
    "institution": "UCLA",
    "country": "United States",
    "country_code": "US",
    "region": "CA",
    "city": "Los Angeles",
    "lat": 34.0648,
    "lon": -118.4414,
    "org": "University of California, Los Angeles",
    "category": "Academic",
    "display_name": "UCLA",
    "count": 1
  },
  {
    "domain": "glasgow.ac.uk",
    "institution": "University of Glasgow",
    "country": "United Kingdom",
    "country_code": "GB",
    "region": "SCT",
    "city": "Glasgow",
    "lat": 55.8803,
    "lon": -4.3055,
    "org": "",
    "category": "Academic",
    "display_name": "University of Glasgow",
    "count": 1
  },
  {
    "domain": "gmail.com",
    "institution": "Dept. of Integrative Medical Biology, Umea University, Umea-Sweden",
    "country": "United States",
    "country_code": "US",
    "region": "CA",
    "city": "Mountain View",
    "lat": 37.4225,
    "lon": -122.085,
    "org": "Google LLC",
    "category": "Academic",
    "display_name": "Dept. of Integrative Medical Biology, Umea University, Umea-Sweden",
    "count": 2
  },
  {
    "domain": "gmx.de",
    "institution": "Neurology Dept. Mannheim, University of Heidelberg",
    "country": "Germany",
    "country_code": "DE",
    "region": "BW",
    "city": "Karlsruhe",
    "lat": 49.0069,
    "lon": 8.40365,
    "org": "Ionos Inf",
    "category": "Academic",
    "display_name": "Neurology Dept. Mannheim, University of Heidelberg",
    "count": 3
  },
  {
    "domain": "grupoptm.com",
    "institution": "",
    "country": "United States",
    "country_code": "US",
    "region": "MA",
    "city": "Boston",
    "lat": 42.3574,
    "lon": -71.0618,
    "org": "",
    "category": "Commercial",
    "display_name": "GRUPOPTM",
    "count": 1
  },
  {
    "domain": "hanmail.net",
    "institution": "GMC",
    "country": "South Korea",
    "country_code": "KR",
    "region": "41",
    "city": "Seongnam-si",
    "lat": 37.3921,
    "lon": 127.109,
    "org": "KAKAO",
    "category": "Commercial",
    "display_name": "GMC",
    "count": 1
  },
  {
    "domain": "hawk.iit.edu",
    "institution": "",
    "country": "United States",
    "country_code": "US",
    "region": "IL",
    "city": "Chicago",
    "lat": 41.8502,
    "lon": -87.6736,
    "org": "Illinois Institute of Technology",
    "category": "Academic",
    "display_name": "HAWK",
    "count": 1
  },
  {
    "domain": "houstonmethodist.org",
    "institution": "Houston Methodist",
    "country": "United States",
    "country_code": "US",
    "region": "TX",
    "city": "San Antonio",
    "lat": 29.4167,
    "lon": -98.5,
    "org": "Microsoft Azure Cloud (southcentralus)",
    "category": "Commercial",
    "display_name": "Houston Methodist",
    "count": 1
  },
  {
    "domain": "hsctmexico.com",
    "institution": "Clinica Ruiz",
    "country": "United States",
    "country_code": "US",
    "region": "AZ",
    "city": "Tempe",
    "lat": 33.3359,
    "lon": -111.894,
    "org": "GoDaddy.com, LLC",
    "category": "Healthcare",
    "display_name": "Clinica Ruiz",
    "count": 3
  },
  {
    "domain": "huhsp.org.br",
    "institution": "",
    "country": "Brazil",
    "country_code": "BR",
    "region": "SP",
    "city": "São Paulo",
    "lat": -23.6293,
    "lon": -46.6351,
    "org": "FUNDAÇÃO DE AMPARO À PESQUISA DO ESTADO SÃO PAULO",
    "category": "Commercial",
    "display_name": "HUHSP",
    "count": 1
  },
  {
    "domain": "hus.fi",
    "institution": "",
    "country": "France",
    "country_code": "FR",
    "region": "IDF",
    "city": "Suresnes",
    "lat": 48.8672,
    "lon": 2.2258,
    "org": "F5 Distributed cloud services",
    "category": "Commercial",
    "display_name": "HUS",
    "count": 1
  },
  {
    "domain": "i-med.ac.at",
    "institution": "Medical University Innsbruck",
    "country": "Austria",
    "country_code": "AT",
    "region": "7",
    "city": "Innsbruck",
    "lat": 47.2637,
    "lon": 11.4016,
    "org": "",
    "category": "Academic",
    "display_name": "Medical University Innsbruck",
    "count": 1
  },
  {
    "domain": "indocresearch.org",
    "institution": "Indoc Research",
    "country": "United States",
    "country_code": "US",
    "region": "IA",
    "city": "Council Bluffs",
    "lat": 41.2619,
    "lon": -95.8608,
    "org": "Google Cloud (us-central1)",
    "category": "Research",
    "display_name": "Indoc Research",
    "count": 2
  },
  {
    "domain": "ibisworks.com",
    "institution": "IBIS",
    "country": "United States",
    "country_code": "US",
    "region": "CA",
    "city": "San Francisco",
    "lat": 37.7708,
    "lon": -122.413,
    "org": "Webflow, Inc",
    "category": "Commercial",
    "display_name": "IBIS",
    "count": 2
  },
  {
    "domain": "otago.ac.nz",
    "institution": "Auckland Hospital",
    "country": "Canada",
    "country_code": "CA",
    "region": "ON",
    "city": "Toronto",
    "lat": 43.6532,
    "lon": -79.3832,
    "org": "Cloudflare, Inc.",
    "category": "Academic",
    "display_name": "Auckland Hospital",
    "count": 7
  },
  {
    "domain": "ieee.org",
    "institution": "Northwestern University",
    "country": "United States",
    "country_code": "US",
    "region": "NJ",
    "city": "Metuchen",
    "lat": 40.544,
    "lon": -74.3521,
    "org": "Institute of Electrical and Electronics Engineers, Inc",
    "category": "Academic",
    "display_name": "Northwestern University",
    "count": 1
  },
  {
    "domain": "ifc.cnr.it",
    "institution": "",
    "country": "Italy",
    "country_code": "IT",
    "region": "52",
    "city": "Pisa",
    "lat": 43.7089,
    "lon": 10.4087,
    "org": "Consiglio Nazionale delle Ricerche",
    "category": "Commercial",
    "display_name": "IFC",
    "count": 1
  },
  {
    "domain": "illinois.edu",
    "institution": "University of Illinois at Urbana-Champaign",
    "country": "United States",
    "country_code": "US",
    "region": "IL",
    "city": "Chicago",
    "lat": 41.8819,
    "lon": -87.6278,
    "org": "Microsoft Azure Cloud (northcentralus)",
    "category": "Academic",
    "display_name": "University of Illinois at Urbana-Champaign",
    "count": 2
  },
  {
    "domain": "imperial.ac.uk",
    "institution": "Imperial College London",
    "country": "United Kingdom",
    "country_code": "GB",
    "region": "ENG",
    "city": "London",
    "lat": 51.4988,
    "lon": -0.1749,
    "org": "Imperial College of Science, Technology and Medicine",
    "category": "Academic",
    "display_name": "Imperial College London",
    "count": 1
  },
  {
    "domain": "inbox.ru",
    "institution": "Private",
    "country": "Russia",
    "country_code": "RU",
    "region": "MOW",
    "city": "Moscow",
    "lat": 55.7558,
    "lon": 37.6173,
    "org": "VK Services",
    "category": "Commercial",
    "display_name": "Private",
    "count": 1
  },
  {
    "domain": "incf.org",
    "institution": "",
    "country": "United States",
    "country_code": "US",
    "region": "MO",
    "city": "Kansas City",
    "lat": 39.0997,
    "lon": -94.5785,
    "org": "Google Cloud",
    "category": "Commercial",
    "display_name": "INCF",
    "count": 1
  },
  {
    "domain": "iusspavia.it",
    "institution": "",
    "country": "Italy",
    "country_code": "IT",
    "region": "25",
    "city": "Milan",
    "lat": 45.4642,
    "lon": 9.18998,
    "org": "VIP Vlan",
    "category": "Commercial",
    "display_name": "IUSSPAVIA",
    "count": 1
  },
  {
    "domain": "kcl.ac.uk",
    "institution": "Imaging Sciences, King's College London",
    "country": "United Kingdom",
    "country_code": "GB",
    "region": "ENG",
    "city": "London",
    "lat": 51.5115,
    "lon": -0.115997,
    "org": "King's College London",
    "category": "Academic",
    "display_name": "Imaging Sciences, King's College London",
    "count": 1
  },
  {
    "domain": "key2b.it",
    "institution": "",
    "country": "Italy",
    "country_code": "IT",
    "region": "52",
    "city": "Arezzo",
    "lat": 43.4631,
    "lon": 11.8783,
    "org": "Aruba S.p.A. - Shared Hosting and Mail services",
    "category": "Commercial",
    "display_name": "KEY2B",
    "count": 1
  },
  {
    "domain": "ki.se",
    "institution": "",
    "country": "Sweden",
    "country_code": "SE",
    "region": "AB",
    "city": "Stockholm",
    "lat": 59.3326,
    "lon": 18.0651,
    "org": "Karolinska Institutet",
    "category": "Commercial",
    "display_name": "KI",
    "count": 1
  },
  {
    "domain": "knowledgevis.com",
    "institution": "KnowledgeVis, LLC",
    "country": "United States",
    "country_code": "US",
    "region": "CO",
    "city": "Boulder",
    "lat": 40.0188,
    "lon": -105.256,
    "org": "zColo",
    "category": "Commercial",
    "display_name": "KnowledgeVis, LLC",
    "count": 1
  },
  {
    "domain": "kumc.edu",
    "institution": "",
    "country": "United States",
    "country_code": "US",
    "region": "WA",
    "city": "Tukwila",
    "lat": 47.4902,
    "lon": -122.3004,
    "org": "Wowrack.com",
    "category": "Academic",
    "display_name": "KUMC",
    "count": 1
  },
  {
    "domain": "lanostrafamiglia.it",
    "institution": "La Nostra Famiglia",
    "country": "United Kingdom",
    "country_code": "GB",
    "region": "ENG",
    "city": "Reading",
    "lat": 51.4278,
    "lon": -0.97925,
    "org": "",
    "category": "Commercial",
    "display_name": "La Nostra Famiglia",
    "count": 1
  },
  {
    "domain": "lbl.gov",
    "institution": "US DOE, UC Lawrence Berkeley Lab",
    "country": "United States",
    "country_code": "US",
    "region": "CA",
    "city": "Berkeley",
    "lat": 37.8715,
    "lon": -122.273,
    "org": "Lawrence Berkeley National Laboratory",
    "category": "Government",
    "display_name": "US DOE, UC Lawrence Berkeley Lab",
    "count": 1
  },
  {
    "domain": "libero.it",
    "institution": "IRCCS E. Medea",
    "country": "Italy",
    "country_code": "IT",
    "region": "25",
    "city": "Assago",
    "lat": 45.4641,
    "lon": 9.281,
    "org": "Italiaonline S.p.A",
    "category": "Commercial",
    "display_name": "IRCCS E. Medea",
    "count": 1
  },
  {
    "domain": "lih.lu",
    "institution": "Luxeumbourg Institute of Health",
    "country": "Luxembourg",
    "country_code": "LU",
    "region": "CA",
    "city": "Roodt",
    "lat": 49.6919,
    "lon": 6.0022,
    "org": "Fondation RESTENA",
    "category": "Academic",
    "display_name": "Luxeumbourg Institute of Health",
    "count": 1
  },
  {
    "domain": "linkdx.com.co",
    "institution": "Link Diagn",
    "country": "Canada",
    "country_code": "CA",
    "region": "QC",
    "city": "Montreal",
    "lat": 45.4995,
    "lon": -73.5848,
    "org": "OVH Hosting, Inc.",
    "category": "Commercial",
    "display_name": "Link Diagn",
    "count": 1
  },
  {
    "domain": "liu.se",
    "institution": "IKE CSAN",
    "country": "Sweden",
    "country_code": "SE",
    "region": "E",
    "city": "Linköping",
    "lat": 58.416,
    "lon": 15.6288,
    "org": "Linkopings universitet",
    "category": "Commercial",
    "display_name": "IKE CSAN",
    "count": 1
  },
  {
    "domain": "mail.med.upenn.edu",
    "institution": "",
    "country": "United States",
    "country_code": "US",
    "region": "PA",
    "city": "Philadelphia",
    "lat": 39.9597,
    "lon": -75.1995,
    "org": "University of Pennsylvania",
    "category": "Academic",
    "display_name": "MAIL",
    "count": 1
  },
  {
    "domain": "mail.nih.gov",
    "institution": "NIDA",
    "country": "United States",
    "country_code": "US",
    "region": "MD",
    "city": "Baltimore",
    "lat": 39.2645,
    "lon": -76.6224,
    "org": "National Institutes of Health",
    "category": "Government",
    "display_name": "NIDA",
    "count": 1
  },
  {
    "domain": "mail.utoronto.ca",
    "institution": "University of Toronto",
    "country": "Canada",
    "country_code": "CA",
    "region": "ON",
    "city": "Toronto",
    "lat": 43.6638,
    "lon": -79.3999,
    "org": "University of Toronto",
    "category": "Academic",
    "display_name": "University of Toronto",
    "count": 1
  },
  {
    "domain": "manchester.ac.uk",
    "institution": "The University of Manchester",
    "country": "United Kingdom",
    "country_code": "GB",
    "region": "ENG",
    "city": "Manchester",
    "lat": 53.4808,
    "lon": -2.2426,
    "org": "AWS EC2 (eu-west-2)",
    "category": "Academic",
    "display_name": "The University of Manchester",
    "count": 1
  },
  {
    "domain": "mayo.edu",
    "institution": "Mayo Clinic ADIR",
    "country": "United States",
    "country_code": "US",
    "region": "MN",
    "city": "Rochester",
    "lat": 44.0484,
    "lon": -92.4948,
    "org": "Mayo Foundation Medical Education and Research",
    "category": "Academic",
    "display_name": "Mayo Clinic ADIR",
    "count": 1
  },
  {
    "domain": "mcgill.ca",
    "institution": "McGill University",
    "country": "Canada",
    "country_code": "CA",
    "region": "QC",
    "city": "Montreal",
    "lat": 45.4724,
    "lon": -73.6141,
    "org": "McGill University",
    "category": "Academic",
    "display_name": "McGill University",
    "count": 1
  },
  {
    "domain": "mcw.edu",
    "institution": "Medical College of Wisconsin",
    "country": "United States",
    "country_code": "US",
    "region": "WI",
    "city": "Milwaukee",
    "lat": 42.9778,
    "lon": -87.891,
    "org": "Medical College of Wisconsin",
    "category": "Academic",
    "display_name": "Medical College of Wisconsin",
    "count": 1
  },
  {
    "domain": "mdanderson.edu",
    "institution": "MD Anderson Cancer Center",
    "country": "United States",
    "country_code": "US",
    "region": "TX",
    "city": "Houston",
    "lat": 29.7046,
    "lon": -95.4007,
    "org": "The University Of Texas M.D. Anderson Cancer Center",
    "category": "Academic",
    "display_name": "MD Anderson Cancer Center",
    "count": 2
  },
  {
    "domain": "me.com",
    "institution": "",
    "country": "United States",
    "country_code": "US",
    "region": "CA",
    "city": "Cupertino",
    "lat": 37.3322,
    "lon": -122.011,
    "org": "Apple Inc",
    "category": "Commercial",
    "display_name": "ME",
    "count": 1
  },
  {
    "domain": "med.umich.edu",
    "institution": "U Mich",
    "country": "United States",
    "country_code": "US",
    "region": "MI",
    "city": "Ann Arbor",
    "lat": 42.2807,
    "lon": -83.7801,
    "org": "The Regents of the University of Michigan",
    "category": "Academic",
    "display_name": "U Mich",
    "count": 1
  },
  {
    "domain": "med.unc.edu",
    "institution": "University of North Carolina, NIRAL",
    "country": "United States",
    "country_code": "US",
    "region": "NC",
    "city": "Chapel Hill",
    "lat": 35.9151,
    "lon": -79.0972,
    "org": "University of North Carolina at Chapel Hill",
    "category": "Academic",
    "display_name": "University of North Carolina, NIRAL",
    "count": 1
  },
  {
    "domain": "medis.nl",
    "institution": "Medis",
    "country": "The Netherlands",
    "country_code": "NL",
    "region": "ZH",
    "city": "Leiden",
    "lat": 52.1559,
    "lon": 4.4919,
    "org": "Vodafone Enterprise Solutions",
    "category": "Commercial",
    "display_name": "Medis",
    "count": 1
  },
  {
    "domain": "medma.uni-heidelberg.de",
    "institution": "",
    "country": "Germany",
    "country_code": "DE",
    "region": "BW",
    "city": "Heidelberg",
    "lat": 49.407,
    "lon": 8.6879,
    "org": "UNI-HEIDELBERG",
    "category": "Commercial",
    "display_name": "MEDMA",
    "count": 1
  },
  {
    "domain": "medschl.cam.ac.uk",
    "institution": "Cambridge University",
    "country": "United Kingdom",
    "country_code": "GB",
    "region": "ENG",
    "city": "Cambridge",
    "lat": 52.2053,
    "lon": 0.1218,
    "org": "University of Cambridge",
    "category": "Academic",
    "display_name": "Cambridge University",
    "count": 1
  },
  {
    "domain": "medsult.com",
    "institution": "Medsult",
    "country": "Canada",
    "country_code": "CA",
    "region": "ON",
    "city": "Toronto",
    "lat": 43.6483,
    "lon": -79.5055,
    "org": "EntirelyDigital",
    "category": "Commercial",
    "display_name": "Medsult",
    "count": 1
  },
  {
    "domain": "mpi.nl",
    "institution": "MPI",
    "country": "The Netherlands",
    "country_code": "NL",
    "region": "NH",
    "city": "Amsterdam",
    "lat": 52.3882,
    "lon": 4.8844,
    "org": "Max-Planck Institut fuer Psycholinguistik, Nijmegen",
    "category": "Commercial",
    "display_name": "MPI",
    "count": 1
  },
  {
    "domain": "mpib-berlin.mpg.de",
    "institution": "MPI",
    "country": "Germany",
    "country_code": "DE",
    "region": "BE",
    "city": "Berlin",
    "lat": 52.5312,
    "lon": 13.3878,
    "org": "Gemeinsames Netzwerkzentrum am Fritz Haber Institut",
    "category": "Commercial",
    "display_name": "MPI",
    "count": 1
  },
  {
    "domain": "mrc-epid.cam.ac.uk",
    "institution": "MRC Epidemiology Unit",
    "country": "United Kingdom",
    "country_code": "GB",
    "region": "ENG",
    "city": "Cambridge",
    "lat": 52.2087,
    "lon": 0.0986,
    "org": "University of Cambridge",
    "category": "Academic",
    "display_name": "MRC Epidemiology Unit",
    "count": 1
  },
  {
    "domain": "mssm.edu",
    "institution": "Icahn School of Medicine at Mount Sinai Hospital",
    "country": "United States",
    "country_code": "US",
    "region": "NY",
    "city": "New York",
    "lat": 40.781,
    "lon": -73.9501,
    "org": "Mount Sinai School of Medicine",
    "category": "Academic",
    "display_name": "Icahn School of Medicine at Mount Sinai Hospital",
    "count": 1
  },
  {
    "domain": "muhc.mcgil.ca",
    "institution": "",
    "country": "United States",
    "country_code": "US",
    "region": "IL",
    "city": "Chicago",
    "lat": 41.8835,
    "lon": -87.6305,
    "org": "Akamai Technologies, Inc.",
    "category": "Commercial",
    "display_name": "MUHC",
    "count": 1
  },
  {
    "domain": "naver.com",
    "institution": "jeju national university hospital",
    "country": "South Korea",
    "country_code": "KR",
    "region": "41",
    "city": "Seongnam-si",
    "lat": 37.3962,
    "lon": 127.112,
    "org": "",
    "category": "Academic",
    "display_name": "jeju national university hospital",
    "count": 1
  },
  {
    "domain": "nbrc.ac.in",
    "institution": "",
    "country": "India",
    "country_code": "IN",
    "region": "DL",
    "city": "New Delhi",
    "lat": 28.6205,
    "lon": 77.2136,
    "org": "National Informatics Centre",
    "category": "Academic",
    "display_name": "NBRC",
    "count": 1
  },
  {
    "domain": "nencki.edu.pl",
    "institution": "",
    "country": "Poland",
    "country_code": "PL",
    "region": "14",
    "city": "Warsaw",
    "lat": 52.1922,
    "lon": 20.8846,
    "org": "Interdisciplinary Centre Modelling",
    "category": "Academic",
    "display_name": "NENCKI",
    "count": 1
  },
  {
    "domain": "neuro.uni-luebeck.de",
    "institution": "University of Luebeck",
    "country": "Germany",
    "country_code": "DE",
    "region": "SH",
    "city": "Lübeck",
    "lat": 53.8529,
    "lon": 10.6741,
    "org": "Universitaet zu Luebeck",
    "category": "Academic",
    "display_name": "University of Luebeck",
    "count": 2
  },
  {
    "domain": "neuromed.it",
    "institution": "IRCCS NEUROMED",
    "country": "Italy",
    "country_code": "IT",
    "region": "67",
    "city": "Venafro",
    "lat": 41.4819,
    "lon": 14.0402,
    "org": "ARMADA di Fabio Mascio Impresa Individuale",
    "category": "Commercial",
    "display_name": "IRCCS NEUROMED",
    "count": 1
  },
  {
    "domain": "newcastle.ac.uk",
    "institution": "",
    "country": "United Kingdom",
    "country_code": "GB",
    "region": "ENG",
    "city": "Newcastle upon Tyne",
    "lat": 54.9742,
    "lon": -1.615,
    "org": "University of Newcastle upon Tyne",
    "category": "Academic",
    "display_name": "NEWCASTLE",
    "count": 1
  },
  {
    "domain": "nhs.net",
    "institution": "UNIVERSITY COLLEGE LONDON HOSPITALS NHS FOUNDATION TRUST",
    "country": "United Kingdom",
    "country_code": "GB",
    "region": "WLS",
    "city": "Cardiff",
    "lat": 51.481785,
    "lon": -3.178065,
    "org": "Microsoft Azure Cloud (ukwest)",
    "category": "Academic",
    "display_name": "UNIVERSITY COLLEGE LONDON HOSPITALS NHS FOUNDATION TRUST",
    "count": 1
  },
  {
    "domain": "nih.gov",
    "institution": "National Institute on Drug Abuse/NIH",
    "country": "United States",
    "country_code": "US",
    "region": "MD",
    "city": "Frederick",
    "lat": 39.494,
    "lon": -77.4608,
    "org": "National Institutes of Health",
    "category": "Academic",
    "display_name": "National Institute on Drug Abuse/NIH",
    "count": 1
  },
  {
    "domain": "njhealth.org",
    "institution": "National Jewish Health",
    "country": "United States",
    "country_code": "US",
    "region": "CO",
    "city": "Denver",
    "lat": 39.7321,
    "lon": -104.9555,
    "org": "National Jewish Medical and Research Center Corporation",
    "category": "Healthcare",
    "display_name": "National Jewish Health",
    "count": 1
  },
  {
    "domain": "nki.nl",
    "institution": "Netherlands Cancer Institute",
    "country": "The Netherlands",
    "country_code": "NL",
    "region": "ZH",
    "city": "Leiden",
    "lat": 52.163,
    "lon": 4.47611,
    "org": "Transip B.V",
    "category": "Academic",
    "display_name": "Netherlands Cancer Institute",
    "count": 1
  },
  {
    "domain": "nmr.mgh.harvard.edu",
    "institution": "",
    "country": "United States",
    "country_code": "US",
    "region": "MA",
    "city": "Boston",
    "lat": 42.3427,
    "lon": -71.0922,
    "org": "Massachusetts General Hospital",
    "category": "Academic",
    "display_name": "NMR",
    "count": 1
  },
  {
    "domain": "opi.org.pl",
    "institution": "National Information Processing Institute, Poland",
    "country": "Poland",
    "country_code": "PL",
    "region": "14",
    "city": "Strachówka",
    "lat": 52.4269,
    "lon": 21.6348,
    "org": "OPI PIB",
    "category": "Academic",
    "display_name": "National Information Processing Institute, Poland",
    "count": 1
  },
  {
    "domain": "optonline.net",
    "institution": "",
    "country": "United States",
    "country_code": "US",
    "region": "NY",
    "city": "New Hyde Park",
    "lat": 40.731,
    "lon": -73.6742,
    "org": "Systemax Inc.",
    "category": "Commercial",
    "display_name": "OPTONLINE",
    "count": 1
  },
  {
    "domain": "outlook.com",
    "institution": "APHP",
    "country": "United States",
    "country_code": "US",
    "region": "CA",
    "city": "San Jose",
    "lat": 37.3382,
    "lon": -121.8863,
    "org": "Microsoft Corporation",
    "category": "Commercial",
    "display_name": "APHP",
    "count": 1
  },
  {
    "domain": "panix.com",
    "institution": "",
    "country": "United States",
    "country_code": "US",
    "region": "NY",
    "city": "New York",
    "lat": 40.7851,
    "lon": -73.9745,
    "org": "Panix Public Access Internet",
    "category": "Commercial",
    "display_name": "PANIX",
    "count": 1
  },
  {
    "domain": "pet.mgh.harvard.edu",
    "institution": "MGH",
    "country": "United States",
    "country_code": "US",
    "region": "MA",
    "city": "Cambridge",
    "lat": 42.3737,
    "lon": -71.1284,
    "org": "Harvard University",
    "category": "Academic",
    "display_name": "MGH",
    "count": 1
  },
  {
    "domain": "phas.ubc.ca",
    "institution": "",
    "country": "Canada",
    "country_code": "CA",
    "region": "BC",
    "city": "Vancouver",
    "lat": 49.2643,
    "lon": -123.0961,
    "org": "University of British Columbia",
    "category": "Commercial",
    "display_name": "PHAS",
    "count": 1
  },
  {
    "domain": "physiomri.com",
    "institution": "Physio MRI Tech S.L.",
    "country": "Germany",
    "country_code": "DE",
    "region": "NW",
    "city": "Essen",
    "lat": 51.4576,
    "lon": 7.02246,
    "org": "Ionos Inf",
    "category": "Commercial",
    "display_name": "Physio MRI Tech S.L.",
    "count": 1
  },
  {
    "domain": "pipegrep.co.uk",
    "institution": "",
    "country": "Denmark",
    "country_code": "DK",
    "region": "84",
    "city": "Copenhagen",
    "lat": 55.674,
    "lon": 12.5696,
    "org": "Onecom Infra",
    "category": "Commercial",
    "display_name": "PIPEGREP",
    "count": 1
  },
  {
    "domain": "pitt.edu",
    "institution": "University of Pittsburgh Medical Center",
    "country": "United States",
    "country_code": "US",
    "region": "PA",
    "city": "Pittsburgh",
    "lat": 40.4406,
    "lon": -79.9959,
    "org": "University of Pittsburgh",
    "category": "Academic",
    "display_name": "University of Pittsburgh Medical Center",
    "count": 1
  },
  {
    "domain": "pku.edu.cn",
    "institution": "Center for MRI Research, Peking University",
    "country": "China",
    "country_code": "CN",
    "region": "BJ",
    "city": "Beijing",
    "lat": 39.9042,
    "lon": 116.407,
    "org": "China Education and Research Network",
    "category": "Academic",
    "display_name": "Center for MRI Research, Peking University",
    "count": 1
  },
  {
    "domain": "polyu.edu.hk",
    "institution": "",
    "country": "Hong Kong",
    "country_code": "HK",
    "region": "KKC",
    "city": "Hung Hom",
    "lat": 22.3046,
    "lon": 114.18,
    "org": "The Hong Kong Polytechnic University",
    "category": "Academic",
    "display_name": "POLYU",
    "count": 1
  },
  {
    "domain": "positrigo.com",
    "institution": "Positrigo",
    "country": "France",
    "country_code": "FR",
    "region": "GES",
    "city": "Strasbourg",
    "lat": 48.5848,
    "lon": 7.7419,
    "org": "Host Europe GmbH",
    "category": "Commercial",
    "display_name": "Positrigo",
    "count": 1
  },
  {
    "domain": "posteo.de",
    "institution": "",
    "country": "Germany",
    "country_code": "DE",
    "region": "BE",
    "city": "Berlin",
    "lat": 52.4863,
    "lon": 13.3836,
    "org": "Posteo e.K",
    "category": "Commercial",
    "display_name": "POSTEO",
    "count": 1
  },
  {
    "domain": "protocol0.com",
    "institution": "MPI",
    "country": "United Kingdom",
    "country_code": "GB",
    "region": "ENG",
    "city": "London",
    "lat": 51.5081,
    "lon": -0.1278,
    "org": "Linode, LLC",
    "category": "Commercial",
    "display_name": "MPI",
    "count": 1
  },
  {
    "domain": "ptb.de",
    "institution": "Physikalisch-Technische Bundesanstalt (PTB)",
    "country": "Germany",
    "country_code": "DE",
    "region": "NI",
    "city": "Braunschweig",
    "lat": 52.2784,
    "lon": 10.5439,
    "org": "Physikalisch-Technische Bundesanstalt",
    "category": "Commercial",
    "display_name": "Physikalisch-Technische Bundesanstalt (PTB)",
    "count": 1
  },
  {
    "domain": "qmetricstech.com",
    "institution": "",
    "country": "United States",
    "country_code": "US",
    "region": "NY",
    "city": "Brentwood",
    "lat": 40.7801,
    "lon": -73.2458,
    "org": "Qmetrics Clinical Services LLC",
    "category": "Commercial",
    "display_name": "QMETRICSTECH",
    "count": 1
  },
  {
    "domain": "qq.com",
    "institution": "HIT",
    "country": "Hong Kong",
    "country_code": "HK",
    "region": "",
    "city": "Hong Kong",
    "lat": 22.3193,
    "lon": 114.169,
    "org": "Tencent",
    "category": "Commercial",
    "display_name": "HIT",
    "count": 1
  },
  {
    "domain": "qut.edu.au",
    "institution": "",
    "country": "Australia",
    "country_code": "AU",
    "region": "QLD",
    "city": "Kelvin Grove",
    "lat": -27.4492,
    "lon": 153.0155,
    "org": "Queensland University of Technology",
    "category": "Academic",
    "display_name": "QUT",
    "count": 1
  },
  {
    "domain": "radboudumc.nl",
    "institution": "",
    "country": "The Netherlands",
    "country_code": "NL",
    "region": "GE",
    "city": "Nijmegen",
    "lat": 51.8316,
    "lon": 5.8072,
    "org": "RadboudUMC",
    "category": "Commercial",
    "display_name": "RADBOUDUMC",
    "count": 1
  },
  {
    "domain": "radiologics.com",
    "institution": "Radiologics Inc",
    "country": "United States",
    "country_code": "US",
    "region": "WA",
    "city": "Seattle",
    "lat": 47.6109,
    "lon": -122.3303,
    "org": "AWS CloudFront (GLOBAL)",
    "category": "Commercial",
    "display_name": "Radiologics Inc",
    "count": 1
  },
  {
    "domain": "uchealth.com",
    "institution": "UC Health",
    "country": "United States",
    "country_code": "US",
    "region": "OH",
    "city": "Dublin",
    "lat": 40.0992,
    "lon": -83.1141,
    "org": "AWS EC2 (us-east-2)",
    "category": "Healthcare",
    "display_name": "UC Health",
    "count": 4
  },
  {
    "domain": "reading.ac.uk",
    "institution": "",
    "country": "United Kingdom",
    "country_code": "GB",
    "region": "ENG",
    "city": "Reading",
    "lat": 51.4425,
    "lon": -0.9267,
    "org": "University of Reading",
    "category": "Academic",
    "display_name": "READING",
    "count": 1
  },
  {
    "domain": "research.baycrest.org",
    "institution": "Baycrest",
    "country": "Canada",
    "country_code": "CA",
    "region": "ON",
    "city": "North York",
    "lat": 43.724,
    "lon": -79.448,
    "org": "Baycrest",
    "category": "Research",
    "display_name": "Baycrest",
    "count": 1
  },
  {
    "domain": "rice.edu",
    "institution": "Rice University",
    "country": "United States",
    "country_code": "US",
    "region": "TX",
    "city": "Houston",
    "lat": 29.6865,
    "lon": -95.4337,
    "org": "Rice University",
    "category": "Academic",
    "display_name": "Rice University",
    "count": 1
  },
  {
    "domain": "rmp.uhn.on.ca",
    "institution": "",
    "country": "Canada",
    "country_code": "CA",
    "region": "ON",
    "city": "Toronto",
    "lat": 43.6538,
    "lon": -79.3938,
    "org": "University Health Network",
    "category": "Commercial",
    "display_name": "RMP",
    "count": 1
  },
  {
    "domain": "rug.nl",
    "institution": "RUG",
    "country": "The Netherlands",
    "country_code": "NL",
    "region": "GR",
    "city": "Haren",
    "lat": 53.1645,
    "lon": 6.5911,
    "org": "Rijksuniversiteit Groningen",
    "category": "Commercial",
    "display_name": "RUG",
    "count": 1
  },
  {
    "domain": "sahmri.com",
    "institution": "SAHMRI",
    "country": "The Netherlands",
    "country_code": "NL",
    "region": "ZH",
    "city": "Alphen aan den Rijn",
    "lat": 52.1306,
    "lon": 4.66227,
    "org": "Enflow B.V",
    "category": "Commercial",
    "display_name": "SAHMRI",
    "count": 1
  },
  {
    "domain": "scannexus.nl",
    "institution": "Scan Nexus",
    "country": "The Netherlands",
    "country_code": "NL",
    "region": "UT",
    "city": "Houten",
    "lat": 52.0281,
    "lon": 5.17551,
    "org": "Cobytes B.V",
    "category": "Commercial",
    "display_name": "Scan Nexus",
    "count": 1
  },
  {
    "domain": "sci.utah.edu",
    "institution": "",
    "country": "United States",
    "country_code": "US",
    "region": "UT",
    "city": "Salt Lake City",
    "lat": 40.7334,
    "lon": -111.8628,
    "org": "University of Utah",
    "category": "Academic",
    "display_name": "SCI",
    "count": 1
  },
  {
    "domain": "sfr.fr",
    "institution": "",
    "country": "France",
    "country_code": "FR",
    "region": "HDF",
    "city": "Lille",
    "lat": 50.6375,
    "lon": 3.0542,
    "org": "SFR SA",
    "category": "Commercial",
    "display_name": "SFR",
    "count": 1
  },
  {
    "domain": "sina.com",
    "institution": "",
    "country": "United States",
    "country_code": "US",
    "region": "UT",
    "city": "Logan",
    "lat": 41.7468,
    "lon": -111.8268,
    "org": "Obliviate LLC",
    "category": "Commercial",
    "display_name": "SINA",
    "count": 1
  },
  {
    "domain": "sivz.nl",
    "institution": "",
    "country": "The Netherlands",
    "country_code": "NL",
    "region": "ZH",
    "city": "Leiden",
    "lat": 52.1675,
    "lon": 4.4859,
    "org": "TransIP BV",
    "category": "Commercial",
    "display_name": "SIVZ",
    "count": 1
  },
  {
    "domain": "sjtu.edu.cn",
    "institution": "Shanghai Jiao Tong University",
    "country": "China",
    "country_code": "CN",
    "region": "SH",
    "city": "Shanghai",
    "lat": 31.2222,
    "lon": 121.4581,
    "org": "",
    "category": "Academic",
    "display_name": "Shanghai Jiao Tong University",
    "count": 1
  },
  {
    "domain": "skku.edu",
    "institution": "",
    "country": "South Korea",
    "country_code": "KR",
    "region": "28",
    "city": "Incheon",
    "lat": 37.4503,
    "lon": 126.6701,
    "org": "",
    "category": "Academic",
    "display_name": "SKKU",
    "count": 1
  },
  {
    "domain": "skoltech.ru",
    "institution": "",
    "country": "Russia",
    "country_code": "RU",
    "region": "MOW",
    "city": "Moscow",
    "lat": 55.7487,
    "lon": 37.6187,
    "org": "WEBHOST",
    "category": "Commercial",
    "display_name": "SKOLTECH",
    "count": 1
  },
  {
    "domain": "slu.edu",
    "institution": "SLU",
    "country": "United States",
    "country_code": "US",
    "region": "CA",
    "city": "Santa Rosa",
    "lat": 38.4404,
    "lon": -122.714,
    "org": "",
    "category": "Academic",
    "display_name": "SLU",
    "count": 1
  },
  {
    "domain": "softsmartinc.com",
    "institution": "",
    "country": "United States",
    "country_code": "US",
    "region": "GA",
    "city": "Atlanta",
    "lat": 33.7838,
    "lon": -84.4455,
    "org": "Vultr Holdings, LLC",
    "category": "Commercial",
    "display_name": "SOFTSMARTINC",
    "count": 1
  },
  {
    "domain": "stanford.edu",
    "institution": "Stanford",
    "country": "United States",
    "country_code": "US",
    "region": "CA",
    "city": "Stanford",
    "lat": 37.423,
    "lon": -122.1639,
    "org": "Stanford University",
    "category": "Academic",
    "display_name": "Stanford",
    "count": 1
  },
  {
    "domain": "stfc.ac.uk",
    "institution": "UK Research & Innovation",
    "country": "United Kingdom",
    "country_code": "GB",
    "region": "ENG",
    "city": "Swindon",
    "lat": 51.5885,
    "lon": -1.7204,
    "org": "Biotechnology and Biological Sciences Research Council",
    "category": "Academic",
    "display_name": "UK Research & Innovation",
    "count": 1
  },
  {
    "domain": "stjude.org",
    "institution": "St. Jude Children's Hospital",
    "country": "United States",
    "country_code": "US",
    "region": "TX",
    "city": "Lewisville",
    "lat": 33.0176,
    "lon": -96.9926,
    "org": "Level 3, LLC",
    "category": "Healthcare",
    "display_name": "St. Jude Children's Hospital",
    "count": 1
  },
  {
    "domain": "sydney.edu.au",
    "institution": "Brain and Mind Reseach Institute",
    "country": "Australia",
    "country_code": "AU",
    "region": "NSW",
    "city": "The Rocks",
    "lat": -33.86,
    "lon": 151.2094,
    "org": "Microsoft Azure Cloud (australiaeast)",
    "category": "Academic",
    "display_name": "Brain and Mind Reseach Institute",
    "count": 1
  },
  {
    "domain": "tatura.net",
    "institution": "Tatura Engineering",
    "country": "Germany",
    "country_code": "DE",
    "region": "BY",
    "city": "Munich",
    "lat": 48.1475,
    "lon": 11.5865,
    "org": "",
    "category": "Commercial",
    "display_name": "Tatura Engineering",
    "count": 2
  },
  {
    "domain": "temple.edu",
    "institution": "",
    "country": "United States",
    "country_code": "US",
    "region": "PA",
    "city": "Philadelphia",
    "lat": 39.9739,
    "lon": -75.1456,
    "org": "Temple University",
    "category": "Academic",
    "display_name": "TEMPLE",
    "count": 1
  },
  {
    "domain": "tphil.nl",
    "institution": "",
    "country": "The Netherlands",
    "country_code": "NL",
    "region": "NH",
    "city": "Amsterdam",
    "lat": 52.4005,
    "lon": 4.84291,
    "org": "Your Hosting B.V",
    "category": "Commercial",
    "display_name": "TPHIL",
    "count": 1
  },
  {
    "domain": "tu-dresden.de",
    "institution": "",
    "country": "Germany",
    "country_code": "DE",
    "region": "SN",
    "city": "Dresden",
    "lat": 51.0295,
    "lon": 13.6997,
    "org": "Tudinf LAN",
    "category": "Commercial",
    "display_name": "TU-DRESDEN",
    "count": 1
  },
  {
    "domain": "u.northwestern.edu",
    "institution": "Northwestern",
    "country": "United States",
    "country_code": "US",
    "region": "IL",
    "city": "Chicago",
    "lat": 41.9703,
    "lon": -87.664,
    "org": "Northwestern University",
    "category": "Academic",
    "display_name": "Northwestern",
    "count": 1
  },
  {
    "domain": "uab.edu",
    "institution": "University of Alabama at Birmingham",
    "country": "United States",
    "country_code": "US",
    "region": "AL",
    "city": "Birmingham",
    "lat": 33.5186,
    "lon": -86.8104,
    "org": "Communications LLC",
    "category": "Academic",
    "display_name": "University of Alabama at Birmingham",
    "count": 1
  },
  {
    "domain": "uantwerpen.be",
    "institution": "University of Antwerp",
    "country": "Belgium",
    "country_code": "BE",
    "region": "VLG",
    "city": "Edegem",
    "lat": 51.156,
    "lon": 4.4437,
    "org": "Uianet",
    "category": "Academic",
    "display_name": "University of Antwerp",
    "count": 1
  },
  {
    "domain": "ucair.med.utah.edu",
    "institution": "",
    "country": "United States",
    "country_code": "US",
    "region": "UT",
    "city": "Tooele",
    "lat": 40.5308,
    "lon": -112.2983,
    "org": "University of Utah",
    "category": "Academic",
    "display_name": "UCAIR",
    "count": 1
  },
  {
    "domain": "ucalgary.ca",
    "institution": "University of Calgary",
    "country": "Canada",
    "country_code": "CA",
    "region": "AB",
    "city": "Calgary",
    "lat": 51.0605,
    "lon": -114.1102,
    "org": "University of Calgary",
    "category": "Academic",
    "display_name": "University of Calgary",
    "count": 1
  },
  {
    "domain": "ucl.ac.uk",
    "institution": "UCL Queen Square Institute of Neurology",
    "country": "United Kingdom",
    "country_code": "GB",
    "region": "ENG",
    "city": "London",
    "lat": 51.5246,
    "lon": -0.134,
    "org": "Information Systems, University",
    "category": "Academic",
    "display_name": "UCL Queen Square Institute of Neurology",
    "count": 1
  },
  {
    "domain": "udg.edu",
    "institution": "University of Girona",
    "country": "Spain",
    "country_code": "ES",
    "region": "CT",
    "city": "Girona",
    "lat": 41.9851,
    "lon": 2.8242,
    "org": "",
    "category": "Academic",
    "display_name": "University of Girona",
    "count": 1
  },
  {
    "domain": "ufl.edu",
    "institution": "University of Florida",
    "country": "United States",
    "country_code": "US",
    "region": "FL",
    "city": "Gainesville",
    "lat": 29.684,
    "lon": -82.3569,
    "org": "University of Florida",
    "category": "Academic",
    "display_name": "University of Florida",
    "count": 1
  },
  {
    "domain": "ugent.be",
    "institution": "",
    "country": "Belgium",
    "country_code": "BE",
    "region": "VLG",
    "city": "Ghent",
    "lat": 51.047,
    "lon": 3.7206,
    "org": "Research network University of Ghent",
    "category": "Commercial",
    "display_name": "UGENT",
    "count": 1
  },
  {
    "domain": "uhs.nhs.uk",
    "institution": "University Hospitals Southampton NHS FT",
    "country": "United Kingdom",
    "country_code": "GB",
    "region": "ENG",
    "city": "Southampton",
    "lat": 50.9097,
    "lon": -1.4044,
    "org": "",
    "category": "Healthcare",
    "display_name": "University Hospitals Southampton NHS FT",
    "count": 1
  },
  {
    "domain": "ukaachen.de",
    "institution": "University Hospital RWTH Aachen",
    "country": "Germany",
    "country_code": "DE",
    "region": "NW",
    "city": "Aachen",
    "lat": 50.7479,
    "lon": 6.0485,
    "org": "RWTH Aachen University",
    "category": "Academic",
    "display_name": "University Hospital RWTH Aachen",
    "count": 1
  },
  {
    "domain": "uks.eu",
    "institution": "University of Saarlandes",
    "country": "Germany",
    "country_code": "DE",
    "region": "RP",
    "city": "Kusel",
    "lat": 49.5315,
    "lon": 7.4118,
    "org": "Universitaet des Saarlandes",
    "category": "Academic",
    "display_name": "University of Saarlandes",
    "count": 1
  },
  {
    "domain": "uliege.be",
    "institution": "LIEGE University",
    "country": "Belgium",
    "country_code": "BE",
    "region": "WAL",
    "city": "Liège",
    "lat": 50.6337,
    "lon": 5.5675,
    "org": "University of Liege",
    "category": "Academic",
    "display_name": "LIEGE University",
    "count": 2
  },
  {
    "domain": "umassmed.edu",
    "institution": "University of Massachusetts Medical School",
    "country": "United States",
    "country_code": "US",
    "region": "MA",
    "city": "Worcester",
    "lat": 42.2626,
    "lon": -71.8023,
    "org": "Episerver Stockholm",
    "category": "Academic",
    "display_name": "University of Massachusetts Medical School",
    "count": 1
  },
  {
    "domain": "umcg.nl",
    "institution": "UMCG",
    "country": "Netherlands",
    "country_code": "NL",
    "region": "GR",
    "city": "Groningen",
    "lat": 53.2193,
    "lon": 6.5665,
    "org": "Google Cloud (europe-west4)",
    "category": "Commercial",
    "display_name": "UMCG",
    "count": 1
  },
  {
    "domain": "umcutrecht.nl",
    "institution": "UMC Utrecht",
    "country": "Netherlands",
    "country_code": "NL",
    "region": "NH",
    "city": "Amsterdam",
    "lat": 52.3667,
    "lon": 4.9,
    "org": "Microsoft Azure Cloud (westeurope)",
    "category": "Commercial",
    "display_name": "UMC Utrecht",
    "count": 1
  },
  {
    "domain": "umn.edu",
    "institution": "",
    "country": "United States",
    "country_code": "US",
    "region": "MN",
    "city": "Saint Paul",
    "lat": 45.0782,
    "lon": -93.1894,
    "org": "University of Minnesota",
    "category": "Academic",
    "display_name": "UMN",
    "count": 1
  },
  {
    "domain": "unam.mx",
    "institution": "Instituto den Neurobiologia",
    "country": "Mexico",
    "country_code": "MX",
    "region": "CMX",
    "city": "Mexico City",
    "lat": 19.4324,
    "lon": -99.1229,
    "org": "Universidad Nacional Autonoma de Mexico",
    "category": "Academic",
    "display_name": "Instituto den Neurobiologia",
    "count": 1
  },
  {
    "domain": "uni-heidelberg.de",
    "institution": "Universit",
    "country": "Germany",
    "country_code": "DE",
    "region": "BW",
    "city": "Heidelberg",
    "lat": 49.4193,
    "lon": 8.7318,
    "org": "UNI-HEIDELBERG",
    "category": "Academic",
    "display_name": "Universit",
    "count": 1
  },
  {
    "domain": "uni-koblenz.de",
    "institution": "MTI",
    "country": "Germany",
    "country_code": "DE",
    "region": "RP",
    "city": "Koblenz",
    "lat": 50.3527,
    "lon": 7.5245,
    "org": "Ukla",
    "category": "Commercial",
    "display_name": "MTI",
    "count": 1
  },
  {
    "domain": "uni.lu",
    "institution": "",
    "country": "Luxembourg",
    "country_code": "LU",
    "region": "LU",
    "city": "Luxembourg",
    "lat": 49.6113,
    "lon": 6.1294,
    "org": "Fondation RESTENA",
    "category": "Commercial",
    "display_name": "UNI",
    "count": 1
  },
  {
    "domain": "unibas.ch",
    "institution": "University of Basel,  Switzerland",
    "country": "Switzerland",
    "country_code": "CH",
    "region": "BL",
    "city": "Binningen",
    "lat": 47.5342,
    "lon": 7.5687,
    "org": "Universitaet Basel",
    "category": "Academic",
    "display_name": "University of Basel,  Switzerland",
    "count": 1
  },
  {
    "domain": "unicampus.it",
    "institution": "",
    "country": "Italy",
    "country_code": "IT",
    "region": "62",
    "city": "Rome",
    "lat": 41.8905,
    "lon": 12.5127,
    "org": "",
    "category": "Commercial",
    "display_name": "UNICAMPUS",
    "count": 1
  },
  {
    "domain": "uniklinikum-dresden.de",
    "institution": "Uniklinikum Carl Gustav Carus Dresden",
    "country": "Germany",
    "country_code": "DE",
    "region": "SN",
    "city": "Dresden",
    "lat": 51.054,
    "lon": 13.7447,
    "org": "Tudinf LAN",
    "category": "Commercial",
    "display_name": "Uniklinikum Carl Gustav Carus Dresden",
    "count": 1
  },
  {
    "domain": "uniroma1.it",
    "institution": "Centro Fermi",
    "country": "Italy",
    "country_code": "IT",
    "region": "62",
    "city": "Latina",
    "lat": 41.4659,
    "lon": 12.904,
    "org": "Universita' degli Studi di Roma La Sapienza",
    "category": "Commercial",
    "display_name": "Centro Fermi",
    "count": 1
  },
  {
    "domain": "unisi.it",
    "institution": "",
    "country": "Italy",
    "country_code": "IT",
    "region": "25",
    "city": "Milan",
    "lat": 45.4722,
    "lon": 9.1922,
    "org": "Universita' di Siena",
    "category": "Commercial",
    "display_name": "UNISI",
    "count": 1
  },
  {
    "domain": "unistra.fr",
    "institution": "",
    "country": "France",
    "country_code": "FR",
    "region": "GES",
    "city": "Oberhausbergen",
    "lat": 48.6072,
    "lon": 7.6872,
    "org": "Unistra Iaas",
    "category": "Commercial",
    "display_name": "UNISTRA",
    "count": 1
  },
  {
    "domain": "unito.it",
    "institution": "University of Torino, Italy",
    "country": "Italy",
    "country_code": "IT",
    "region": "21",
    "city": "Turin",
    "lat": 45.0729,
    "lon": 7.689,
    "org": "Universita degli Studi di Torino",
    "category": "Academic",
    "display_name": "University of Torino, Italy",
    "count": 1
  },
  {
    "domain": "uniud.it",
    "institution": "",
    "country": "Italy",
    "country_code": "IT",
    "region": "36",
    "city": "Rivignano",
    "lat": 45.8781,
    "lon": 13.0492,
    "org": "Universita' degli Studi di Udine",
    "category": "Commercial",
    "display_name": "UNIUD",
    "count": 1
  },
  {
    "domain": "univ-amu.fr",
    "institution": "Institut de Neurosciences de la Timone, Marseille, France",
    "country": "France",
    "country_code": "FR",
    "region": "PAC",
    "city": "Marseille",
    "lat": 43.2901,
    "lon": 5.4084,
    "org": "",
    "category": "Academic",
    "display_name": "Institut de Neurosciences de la Timone, Marseille, France",
    "count": 1
  },
  {
    "domain": "unsw.edu.au",
    "institution": "",
    "country": "Australia",
    "country_code": "AU",
    "region": "NSW",
    "city": "Sydney",
    "lat": -33.8688,
    "lon": 151.209,
    "org": "AWS CloudFront (GLOBAL)",
    "category": "Academic",
    "display_name": "UNSW",
    "count": 1
  },
  {
    "domain": "upmc.edu",
    "institution": "University of Pittsburgh Medical Center",
    "country": "United States",
    "country_code": "US",
    "region": "PA",
    "city": "Pittsburgh",
    "lat": 40.473,
    "lon": -79.9537,
    "org": "UPMC",
    "category": "Academic",
    "display_name": "University of Pittsburgh Medical Center",
    "count": 1
  },
  {
    "domain": "uptowntec.com",
    "institution": "",
    "country": "Hong Kong",
    "country_code": "HK",
    "region": "NKT",
    "city": "Kwai Chung",
    "lat": 22.3702,
    "lon": 114.13,
    "org": "Hong Kong Broadband Network Limited",
    "category": "Commercial",
    "display_name": "UPTOWNTEC",
    "count": 1
  },
  {
    "domain": "uq.edu.au",
    "institution": "",
    "country": "Australia",
    "country_code": "AU",
    "region": "QLD",
    "city": "Brisbane",
    "lat": -27.4752,
    "lon": 152.8871,
    "org": "University of Queensland",
    "category": "Academic",
    "display_name": "UQ",
    "count": 2
  },
  {
    "domain": "utah.edu",
    "institution": "University of Utah",
    "country": "United States",
    "country_code": "US",
    "region": "UT",
    "city": "Salt Lake City",
    "lat": 40.7387,
    "lon": -111.8276,
    "org": "University of Utah",
    "category": "Academic",
    "display_name": "University of Utah",
    "count": 1
  },
  {
    "domain": "utsouthwestern.edu",
    "institution": "University of Texas Southwestern",
    "country": "United States",
    "country_code": "US",
    "region": "TX",
    "city": "Dallas",
    "lat": 32.8138,
    "lon": -96.8402,
    "org": "University of Texas Southwestern Medical Center",
    "category": "Academic",
    "display_name": "University of Texas Southwestern",
    "count": 1
  },
  {
    "domain": "utwente.nl",
    "institution": "University of Twente",
    "country": "The Netherlands",
    "country_code": "NL",
    "region": "OV",
    "city": "Enschede",
    "lat": 52.2385,
    "lon": 6.8706,
    "org": "Universiteit Twente",
    "category": "Academic",
    "display_name": "University of Twente",
    "count": 1
  },
  {
    "domain": "uvic.ca",
    "institution": "",
    "country": "Canada",
    "country_code": "CA",
    "region": "BC",
    "city": "Victoria",
    "lat": 48.4808,
    "lon": -123.3165,
    "org": "University of Victoria",
    "category": "Commercial",
    "display_name": "UVIC",
    "count": 1
  },
  {
    "domain": "uw.edu",
    "institution": "University of Washington",
    "country": "United States",
    "country_code": "US",
    "region": "WA",
    "city": "Seattle",
    "lat": 47.6859,
    "lon": -122.2994,
    "org": "University of Washington",
    "category": "Academic",
    "display_name": "University of Washington",
    "count": 1
  },
  {
    "domain": "uwo.ca",
    "institution": "",
    "country": "Canada",
    "country_code": "CA",
    "region": "ON",
    "city": "London",
    "lat": 43.0147,
    "lon": -81.3049,
    "org": "University of Western Ontario",
    "category": "Commercial",
    "display_name": "UWO",
    "count": 1
  },
  {
    "domain": "uzbrussel.be",
    "institution": "UZ BRUSSEL",
    "country": "Belgium",
    "country_code": "BE",
    "region": "VLG",
    "city": "Ghent",
    "lat": 51.1135,
    "lon": 3.79128,
    "org": "",
    "category": "Commercial",
    "display_name": "UZ BRUSSEL",
    "count": 1
  },
  {
    "domain": "vgregion.se",
    "institution": "Sahlgrenska University Hospital",
    "country": "Sweden",
    "country_code": "SE",
    "region": "O",
    "city": "Vänersborg",
    "lat": 58.3766,
    "lon": 12.3284,
    "org": "Vastra Gotalandsregionen",
    "category": "Academic",
    "display_name": "Sahlgrenska University Hospital",
    "count": 1
  },
  {
    "domain": "vt.edu",
    "institution": "",
    "country": "United States",
    "country_code": "US",
    "region": "VA",
    "city": "Blacksburg",
    "lat": 37.2532,
    "lon": -80.4347,
    "org": "Virginia Polytechnic Institute and State Univ.",
    "category": "Academic",
    "display_name": "VT",
    "count": 1
  },
  {
    "domain": "wayne.edu",
    "institution": "",
    "country": "United States",
    "country_code": "US",
    "region": "MI",
    "city": "New Baltimore",
    "lat": 42.6734,
    "lon": -82.7736,
    "org": "Wayne State University",
    "category": "Academic",
    "display_name": "WAYNE",
    "count": 1
  },
  {
    "domain": "wchospital.ca",
    "institution": "Women's College Hospital",
    "country": "Canada",
    "country_code": "CA",
    "region": "BC",
    "city": "Kelowna",
    "lat": 50.0528,
    "lon": -119.2858,
    "org": "Canhost Inc",
    "category": "Academic",
    "display_name": "Women's College Hospital",
    "count": 1
  },
  {
    "domain": "weizmann.ac.il",
    "institution": "Weizmann Institute of Science",
    "country": "Israel",
    "country_code": "IL",
    "region": "D",
    "city": "AlSayid Tribe",
    "lat": 30.8296,
    "lon": 35.0388,
    "org": "Weizmann",
    "category": "Academic",
    "display_name": "Weizmann Institute of Science",
    "count": 1
  },
  {
    "domain": "wfubmc.edu",
    "institution": "",
    "country": "United States",
    "country_code": "US",
    "region": "NC",
    "city": "Winston-Salem",
    "lat": 36.0682,
    "lon": -80.2928,
    "org": "Wake Forest University Baptist Medical Center",
    "category": "Academic",
    "display_name": "WFUBMC",
    "count": 1
  },
  {
    "domain": "xnatworks.io",
    "institution": "Radiologics, Inc.",
    "country": "United States",
    "country_code": "US",
    "region": "CA",
    "city": "Los Angeles",
    "lat": 34.0362,
    "lon": -118.443,
    "org": "Namecheap, Inc",
    "category": "Commercial",
    "display_name": "Radiologics, Inc.",
    "count": 1
  },
  {
    "domain": "ya.ru",
    "institution": "",
    "country": "Russia",
    "country_code": "RU",
    "region": "MOW",
    "city": "Moscow",
    "lat": 55.7342,
    "lon": 37.5859,
    "org": "Yandex LLC",
    "category": "Commercial",
    "display_name": "YA",
    "count": 1
  },
  {
    "domain": "yachaytech.edu.ec",
    "institution": "",
    "country": "Ecuador",
    "country_code": "EC",
    "region": "I",
    "city": "Urcuquí",
    "lat": 0.41845,
    "lon": -78.1948,
    "org": "Universidad De Investigacion De Tecnologia Experimental Yachay",
    "category": "Academic",
    "display_name": "YACHAYTECH",
    "count": 1
  },
  {
    "domain": "yahoo.co.uk",
    "institution": "King's College London",
    "country": "United States",
    "country_code": "US",
    "region": "WA",
    "city": "Quincy",
    "lat": 47.2343,
    "lon": -119.8525,
    "org": "Oath Holdings Inc",
    "category": "Academic",
    "display_name": "King's College London",
    "count": 2
  },
  {
    "domain": "yisitechnologies.com",
    "institution": "",
    "country": "Australia",
    "country_code": "AU",
    "region": "NSW",
    "city": "Sydney",
    "lat": -33.9328,
    "lon": 150.8974,
    "org": "Synergy Wholesale PTY LTD",
    "category": "Commercial",
    "display_name": "YISITECHNOLOGIES",
    "count": 1
  },
  {
    "domain": "yuhs.ac",
    "institution": "Yonsei University Health System",
    "country": "South Korea",
    "country_code": "KR",
    "region": "41",
    "city": "Seongnam-si",
    "lat": 37.3654,
    "lon": 127.122,
    "org": "Kornet",
    "category": "Academic",
    "display_name": "Yonsei University Health System",
    "count": 1
  },
  {
    "domain": "zellatech.com",
    "institution": "",
    "country": "United States",
    "country_code": "US",
    "region": "LA",
    "city": "New Orleans",
    "lat": 29.953,
    "lon": -90.0764,
    "org": "Zella Technologies, LLC - Cloud",
    "category": "Commercial",
    "display_name": "ZELLATECH",
    "count": 1
  },
  {
    "domain": "zgt.nl",
    "institution": "ZGT",
    "country": "The Netherlands",
    "country_code": "NL",
    "region": "NH",
    "city": "Kortenhoef",
    "lat": 52.2356,
    "lon": 5.1103,
    "org": "",
    "category": "Commercial",
    "display_name": "ZGT",
    "count": 1
  },
  {
    "domain": "zitelab.dk",
    "institution": "zitelab aps",
    "country": "Denmark",
    "country_code": "DK",
    "region": "84",
    "city": "Taastrup",
    "lat": 55.6624,
    "lon": 12.3072,
    "org": "",
    "category": "Research",
    "display_name": "zitelab aps",
    "count": 1
  }
]